[
  {
    "id": 1,
    "name": "Abigail Martinez",
    "department": "Marketing",
    "position": { "lat": 19.879624249614274, "lng": 75.37172707821146 },
    "city": "Aurangabad"
  },
  {
    "id": 2,
    "name": "Charlotte Scott",
    "department": "Research and Development",
    "position": { "lat": 26.94887640930757, "lng": 75.79314820583734 },
    "city": "Jaipur"
  },
  {
    "id": 3,
    "name": "Camila Garcia",
    "department": "Operations",
    "position": { "lat": 13.100389805270316, "lng": 80.28373280266898 },
    "city": "Chennai"
  },
  {
    "id": 4,
    "name": "Camila Young",
    "department": "Sales",
    "position": { "lat": 28.72348960480792, "lng": 77.11445777836236 },
    "city": "Delhi"
  },
  {
    "id": 5,
    "name": "Sofia Adams",
    "department": "Human Resources",
    "position": { "lat": 22.574472122413287, "lng": 88.36572008959482 },
    "city": "Kolkata"
  },
  {
    "id": 6,
    "name": "Evelyn Hall",
    "department": "Operations",
    "position": { "lat": 19.108659544951223, "lng": 72.8988879606338 },
    "city": "Mumbai"
  },
  {
    "id": 7,
    "name": "Aria Parker",
    "department": "Research and Development",
    "position": { "lat": 13.092675758740118, "lng": 80.2744927465799 },
    "city": "Chennai"
  },
  {
    "id": 8,
    "name": "Camila Hall",
    "department": "Information Technology",
    "position": { "lat": 28.711871386706473, "lng": 77.11573396854783 },
    "city": "Delhi"
  },
  {
    "id": 9,
    "name": "Avery Gonzalez",
    "department": "Marketing",
    "position": { "lat": 17.39170798857287, "lng": 78.53565410104312 },
    "city": "Hyderabad"
  },
  {
    "id": 10,
    "name": "Emma Young",
    "department": "Customer Service",
    "position": { "lat": 22.605742818891958, "lng": 88.40251715278862 },
    "city": "Kolkata"
  },
  {
    "id": 11,
    "name": "Sofia Mitchell",
    "department": "Sales",
    "position": { "lat": 26.955856470761432, "lng": 75.79552925437795 },
    "city": "Jaipur"
  },
  {
    "id": 12,
    "name": "Olivia Allen",
    "department": "Sales",
    "position": { "lat": 12.9829068456192, "lng": 77.60740958171255 },
    "city": "Bangalore"
  },
  {
    "id": 13,
    "name": "Ava Jones",
    "department": "Research and Development",
    "position": { "lat": 22.61612314647089, "lng": 88.37198989241449 },
    "city": "Kolkata"
  },
  {
    "id": 14,
    "name": "Ella Davis",
    "department": "Operations",
    "position": { "lat": 21.17250585873067, "lng": 79.0922576781491 },
    "city": "Nagpur"
  },
  {
    "id": 15,
    "name": "Sofia Parker",
    "department": "Human Resources",
    "position": { "lat": 21.17711870086616, "lng": 79.12985241445308 },
    "city": "Nagpur"
  },
  {
    "id": 16,
    "name": "Sophia Campbell",
    "department": "Sales",
    "position": { "lat": 21.159193903889353, "lng": 79.13063058797682 },
    "city": "Nagpur"
  },
  {
    "id": 17,
    "name": "Ava Garcia",
    "department": "Information Technology",
    "position": { "lat": 12.978376410906469, "lng": 77.6095238654572 },
    "city": "Bangalore"
  },
  {
    "id": 18,
    "name": "Luna Walker",
    "department": "Human Resources",
    "position": { "lat": 22.591493560119293, "lng": 88.41193115588783 },
    "city": "Kolkata"
  },
  {
    "id": 19,
    "name": "Mia Adams",
    "department": "Marketing",
    "position": { "lat": 13.018458344308677, "lng": 77.61488270839422 },
    "city": "Bangalore"
  },
  {
    "id": 20,
    "name": "Camila Young",
    "department": "Customer Service",
    "position": { "lat": 23.298890317267013, "lng": 77.45078291294817 },
    "city": "Bhopal"
  },
  {
    "id": 21,
    "name": "Evelyn Campbell",
    "department": "Human Resources",
    "position": { "lat": 23.288733266615836, "lng": 77.42710606825169 },
    "city": "Bhopal"
  },
  {
    "id": 22,
    "name": "Sophia King",
    "department": "Operations",
    "position": { "lat": 13.085330362532716, "lng": 80.31571596428661 },
    "city": "Chennai"
  },
  {
    "id": 23,
    "name": "Charlotte Adams",
    "department": "Customer Service",
    "position": { "lat": 21.173244802940037, "lng": 79.11633375524411 },
    "city": "Nagpur"
  },
  {
    "id": 24,
    "name": "Sophia King",
    "department": "Customer Service",
    "position": { "lat": 23.28591082849962, "lng": 77.43898636085788 },
    "city": "Bhopal"
  },
  {
    "id": 25,
    "name": "Sofia Walker",
    "department": "Customer Service",
    "position": { "lat": 23.287679415305636, "lng": 77.42607500975689 },
    "city": "Bhopal"
  },
  {
    "id": 26,
    "name": "Camila Wright",
    "department": "Human Resources",
    "position": { "lat": 19.900452372740826, "lng": 75.39085590153513 },
    "city": "Aurangabad"
  },
  {
    "id": 27,
    "name": "Emma Parker",
    "department": "Customer Service",
    "position": { "lat": 13.001737312614765, "lng": 77.64112153408205 },
    "city": "Bangalore"
  },
  {
    "id": 28,
    "name": "Camila Taylor",
    "department": "Customer Service",
    "position": { "lat": 22.603311807687845, "lng": 88.38440477619544 },
    "city": "Kolkata"
  },
  {
    "id": 29,
    "name": "Elizabeth Clark",
    "department": "Information Technology",
    "position": { "lat": 17.402971620254412, "lng": 78.5279258574023 },
    "city": "Hyderabad"
  },
  {
    "id": 30,
    "name": "Aria Martinez",
    "department": "Finance",
    "position": { "lat": 26.923855497568855, "lng": 75.79142490209146 },
    "city": "Jaipur"
  },
  {
    "id": 31,
    "name": "Emma Mitchell",
    "department": "Operations",
    "position": { "lat": 12.983159122794284, "lng": 77.61950621504172 },
    "city": "Bangalore"
  },
  {
    "id": 32,
    "name": "Emily King",
    "department": "Marketing",
    "position": { "lat": 13.086836457832653, "lng": 80.28249346599485 },
    "city": "Chennai"
  },
  {
    "id": 33,
    "name": "Amelia Martinez",
    "department": "Human Resources",
    "position": { "lat": 23.298117653013268, "lng": 77.42767356288188 },
    "city": "Bhopal"
  },
  {
    "id": 34,
    "name": "Amelia Davis",
    "department": "Sales",
    "position": { "lat": 28.7347802815735, "lng": 77.14305631376159 },
    "city": "Delhi"
  },
  {
    "id": 35,
    "name": "Ava Parker",
    "department": "Human Resources",
    "position": { "lat": 21.16849325751969, "lng": 79.12131030972486 },
    "city": "Nagpur"
  },
  {
    "id": 36,
    "name": "Amelia Miller",
    "department": "Finance",
    "position": { "lat": 21.183141412766346, "lng": 79.12349793551523 },
    "city": "Nagpur"
  },
  {
    "id": 37,
    "name": "Amelia Parker",
    "department": "Human Resources",
    "position": { "lat": 23.26219108678394, "lng": 77.46184413080088 },
    "city": "Bhopal"
  },
  {
    "id": 38,
    "name": "Aria Campbell",
    "department": "Customer Service",
    "position": { "lat": 12.996403733492489, "lng": 77.63313428695098 },
    "city": "Bangalore"
  },
  {
    "id": 39,
    "name": "Emma Clark",
    "department": "Human Resources",
    "position": { "lat": 21.15202560757144, "lng": 79.09928144989112 },
    "city": "Nagpur"
  },
  {
    "id": 40,
    "name": "Amelia Jones",
    "department": "Human Resources",
    "position": { "lat": 19.099098051624235, "lng": 72.9043195289479 },
    "city": "Mumbai"
  },
  {
    "id": 41,
    "name": "Sofia Parker",
    "department": "Marketing",
    "position": { "lat": 28.713128232906847, "lng": 77.12814638697617 },
    "city": "Delhi"
  },
  {
    "id": 42,
    "name": "Emma Campbell",
    "department": "Human Resources",
    "position": { "lat": 28.75082589741425, "lng": 77.14865873130235 },
    "city": "Delhi"
  },
  {
    "id": 43,
    "name": "Isabella Hall",
    "department": "Research and Development",
    "position": { "lat": 23.30327845934991, "lng": 77.42232657032308 },
    "city": "Bhopal"
  },
  {
    "id": 44,
    "name": "Aria Davis",
    "department": "Operations",
    "position": { "lat": 22.613175721530563, "lng": 88.38544727542707 },
    "city": "Kolkata"
  },
  {
    "id": 45,
    "name": "Ava Hall",
    "department": "Finance",
    "position": { "lat": 17.415472374320284, "lng": 78.5086682232344 },
    "city": "Hyderabad"
  },
  {
    "id": 46,
    "name": "Amelia Allen",
    "department": "Information Technology",
    "position": { "lat": 23.26789599252802, "lng": 77.46186182870748 },
    "city": "Bhopal"
  },
  {
    "id": 47,
    "name": "Evelyn Clark",
    "department": "Marketing",
    "position": { "lat": 17.404778762964334, "lng": 78.52581238333201 },
    "city": "Hyderabad"
  },
  {
    "id": 48,
    "name": "Harper Hall",
    "department": "Information Technology",
    "position": { "lat": 13.124641165100659, "lng": 80.28214806447507 },
    "city": "Chennai"
  },
  {
    "id": 49,
    "name": "Amelia Garcia",
    "department": "Research and Development",
    "position": { "lat": 19.90132756884207, "lng": 75.35272609011153 },
    "city": "Aurangabad"
  },
  {
    "id": 50,
    "name": "Isabella Green",
    "department": "Marketing",
    "position": { "lat": 21.148765473530368, "lng": 79.12428855163319 },
    "city": "Nagpur"
  }
]
